[
  {
    "CED_CODE18": "101",
    "CED_NAME18": "Banks",
    "CED_POPU17": 164403,
    "AREASQKM18": 49.446,
    "lat": -33.965501592660814,
    "long": 151.04795978041759
  },
  {
    "CED_CODE18": "102",
    "CED_NAME18": "Barton",
    "CED_POPU17": 187865,
    "AREASQKM18": 39.6466,
    "lat": -33.94129196922261,
    "long": 151.12818287807895
  },
  {
    "CED_CODE18": "103",
    "CED_NAME18": "Bennelong",
    "CED_POPU17": 181093,
    "AREASQKM18": 58.6052,
    "lat": -33.79441182961803,
    "long": 151.09908743745748
  },
  {
    "CED_CODE18": "104",
    "CED_NAME18": "Berowra",
    "CED_POPU17": 151143,
    "AREASQKM18": 749.6359,
    "lat": -33.5708224686861,
    "long": 151.04078090722496
  },
  {
    "CED_CODE18": "105",
    "CED_NAME18": "Blaxland",
    "CED_POPU17": 186933,
    "AREASQKM18": 61.1166,
    "lat": -33.89584799245283,
    "long": 151.00917253613346
  },
  {
    "CED_CODE18": "106",
    "CED_NAME18": "Bradfield",
    "CED_POPU17": 169310,
    "AREASQKM18": 98.3974,
    "lat": -33.734793960577434,
    "long": 151.1497612343329
  },
  {
    "CED_CODE18": "107",
    "CED_NAME18": "Calare",
    "CED_POPU17": 165791,
    "AREASQKM18": 32417.3417,
    "lat": -33.07797251814973,
    "long": 149.50206470566124
  },
  {
    "CED_CODE18": "108",
    "CED_NAME18": "Chifley",
    "CED_POPU17": 181130,
    "AREASQKM18": 129.3806,
    "lat": -33.72945372063445,
    "long": 150.8372152813147
  },
  {
    "CED_CODE18": "109",
    "CED_NAME18": "Cook",
    "CED_POPU17": 146798,
    "AREASQKM18": 64.433,
    "lat": -34.02559211346832,
    "long": 151.13913687550448
  },
  {
    "CED_CODE18": "110",
    "CED_NAME18": "Cowper",
    "CED_POPU17": 164058,
    "AREASQKM18": 7770.764,
    "lat": -30.76041439778632,
    "long": 152.68994404108008
  },
  {
    "CED_CODE18": "111",
    "CED_NAME18": "Cunningham",
    "CED_POPU17": 162773,
    "AREASQKM18": 1026.2288,
    "lat": -34.34508445319163,
    "long": 150.77159243302322
  },
  {
    "CED_CODE18": "112",
    "CED_NAME18": "Dobell",
    "CED_POPU17": 159598,
    "AREASQKM18": 716.3126,
    "lat": -33.24246342995171,
    "long": 151.3522579290387
  },
  {
    "CED_CODE18": "113",
    "CED_NAME18": "Eden-Monaro",
    "CED_POPU17": 152444,
    "AREASQKM18": 41312.3947,
    "lat": -36.04532514074021,
    "long": 149.02091212796975
  },
  {
    "CED_CODE18": "114",
    "CED_NAME18": "Farrer",
    "CED_POPU17": 168506,
    "AREASQKM18": 126818.3094,
    "lat": -34.34458781848706,
    "long": 144.4573440811468
  },
  {
    "CED_CODE18": "115",
    "CED_NAME18": "Fowler",
    "CED_POPU17": 173263,
    "AREASQKM18": 60.3246,
    "lat": -33.89433614883244,
    "long": 150.920630999942
  },
  {
    "CED_CODE18": "116",
    "CED_NAME18": "Gilmore",
    "CED_POPU17": 155491,
    "AREASQKM18": 6120.3693,
    "lat": -35.223490046482205,
    "long": 150.32353646698755
  },
  {
    "CED_CODE18": "117",
    "CED_NAME18": "Grayndler",
    "CED_POPU17": 159721,
    "AREASQKM18": 27.0637,
    "lat": -33.88710986275966,
    "long": 151.1552158186042
  },
  {
    "CED_CODE18": "118",
    "CED_NAME18": "Greenway",
    "CED_POPU17": 180875,
    "AREASQKM18": 80.4886,
    "lat": -33.73204684937214,
    "long": 150.91170420007282
  },
  {
    "CED_CODE18": "119",
    "CED_NAME18": "Hughes",
    "CED_POPU17": 149514,
    "AREASQKM18": 323.7042,
    "lat": -34.059832094628725,
    "long": 151.01997904125793
  },
  {
    "CED_CODE18": "120",
    "CED_NAME18": "Hume",
    "CED_POPU17": 158069,
    "AREASQKM18": 18759.7437,
    "lat": -34.425183997922346,
    "long": 149.68813166545075
  },
  {
    "CED_CODE18": "121",
    "CED_NAME18": "Hunter",
    "CED_POPU17": 161803,
    "AREASQKM18": 9987.0834,
    "lat": -32.6396522909151,
    "long": 150.94280921329693
  },
  {
    "CED_CODE18": "122",
    "CED_NAME18": "Kingsford Smith",
    "CED_POPU17": 190884,
    "AREASQKM18": 57.6527,
    "lat": -33.94527396222727,
    "long": 151.22217270586322
  },
  {
    "CED_CODE18": "123",
    "CED_NAME18": "Lindsay",
    "CED_POPU17": 174495,
    "AREASQKM18": 349.1732,
    "lat": -33.75274521694756,
    "long": 150.71043261620244
  },
  {
    "CED_CODE18": "124",
    "CED_NAME18": "Lyne",
    "CED_POPU17": 149409,
    "AREASQKM18": 16049.8232,
    "lat": -31.95796514618232,
    "long": 152.09764160141034
  },
  {
    "CED_CODE18": "125",
    "CED_NAME18": "Macarthur",
    "CED_POPU17": 173553,
    "AREASQKM18": 375.9412,
    "lat": -34.068997678963285,
    "long": 150.8366114203782
  },
  {
    "CED_CODE18": "126",
    "CED_NAME18": "Mackellar",
    "CED_POPU17": 156838,
    "AREASQKM18": 212.4568,
    "lat": -33.6742190540731,
    "long": 151.24609208374554
  },
  {
    "CED_CODE18": "127",
    "CED_NAME18": "Macquarie",
    "CED_POPU17": 145602,
    "AREASQKM18": 3616.5619,
    "lat": -33.40668021988255,
    "long": 150.68731858714492
  },
  {
    "CED_CODE18": "128",
    "CED_NAME18": "McMahon",
    "CED_POPU17": 174690,
    "AREASQKM18": 163.1994,
    "lat": -33.83403415534446,
    "long": 150.8672943386178
  },
  {
    "CED_CODE18": "129",
    "CED_NAME18": "Mitchell",
    "CED_POPU17": 163922,
    "AREASQKM18": 98.4496,
    "lat": -33.71376440965716,
    "long": 150.95969016371257
  },
  {
    "CED_CODE18": "130",
    "CED_NAME18": "New England",
    "CED_POPU17": 158025,
    "AREASQKM18": 65448.3965,
    "lat": -30.452363000898618,
    "long": 151.27871012083529
  },
  {
    "CED_CODE18": "131",
    "CED_NAME18": "Newcastle",
    "CED_POPU17": 159907,
    "AREASQKM18": 163.9201,
    "lat": -32.889936241478495,
    "long": 151.70206203234773
  },
  {
    "CED_CODE18": "132",
    "CED_NAME18": "North Sydney",
    "CED_POPU17": 173535,
    "AREASQKM18": 41.6454,
    "lat": -33.81564484514762,
    "long": 151.19103950503734
  },
  {
    "CED_CODE18": "133",
    "CED_NAME18": "Page",
    "CED_POPU17": 162962,
    "AREASQKM18": 19312.4908,
    "lat": -29.334408250111863,
    "long": 152.85648250679216
  },
  {
    "CED_CODE18": "134",
    "CED_NAME18": "Parkes",
    "CED_POPU17": 157401,
    "AREASQKM18": 393579.6705,
    "lat": -30.925881083740226,
    "long": 145.58176692993493
  },
  {
    "CED_CODE18": "135",
    "CED_NAME18": "Parramatta",
    "CED_POPU17": 199947,
    "AREASQKM18": 56.4764,
    "lat": -33.80740631372471,
    "long": 151.00942841896625
  },
  {
    "CED_CODE18": "136",
    "CED_NAME18": "Paterson",
    "CED_POPU17": 161705,
    "AREASQKM18": 1076.3151,
    "lat": -32.76687510510649,
    "long": 151.72162568560293
  },
  {
    "CED_CODE18": "137",
    "CED_NAME18": "Reid",
    "CED_POPU17": 196085,
    "AREASQKM18": 48.8519,
    "lat": -33.855621703987815,
    "long": 151.09222030853127
  },
  {
    "CED_CODE18": "138",
    "CED_NAME18": "Richmond",
    "CED_POPU17": 159902,
    "AREASQKM18": 2138.3118,
    "lat": -28.48157848520859,
    "long": 153.41119486481412
  },
  {
    "CED_CODE18": "139",
    "CED_NAME18": "Riverina",
    "CED_POPU17": 159291,
    "AREASQKM18": 48941.9263,
    "lat": -34.16100471242485,
    "long": 147.66063183626903
  },
  {
    "CED_CODE18": "140",
    "CED_NAME18": "Robertson",
    "CED_POPU17": 148175,
    "AREASQKM18": 892.2777,
    "lat": -33.37788721255022,
    "long": 151.22037869763065
  },
  {
    "CED_CODE18": "141",
    "CED_NAME18": "Shortland",
    "CED_POPU17": 148551,
    "AREASQKM18": 204.2522,
    "lat": -33.174824654168674,
    "long": 151.57996499249526
  },
  {
    "CED_CODE18": "142",
    "CED_NAME18": "Sydney",
    "CED_POPU17": 223820,
    "AREASQKM18": 41.3143,
    "lat": -33.890686846942145,
    "long": 151.1976839411314
  },
  {
    "CED_CODE18": "143",
    "CED_NAME18": "Warringah",
    "CED_POPU17": 158060,
    "AREASQKM18": 52.2796,
    "lat": -33.78062353607304,
    "long": 151.2591392182353
  },
  {
    "CED_CODE18": "144",
    "CED_NAME18": "Watson",
    "CED_POPU17": 185967,
    "AREASQKM18": 47.6845,
    "lat": -33.90715730078357,
    "long": 151.07417274562746
  },
  {
    "CED_CODE18": "145",
    "CED_NAME18": "Wentworth",
    "CED_POPU17": 158854,
    "AREASQKM18": 28.3334,
    "lat": -33.885252944955944,
    "long": 151.25319791155758
  },
  {
    "CED_CODE18": "146",
    "CED_NAME18": "Werriwa",
    "CED_POPU17": 181173,
    "AREASQKM18": 169.6371,
    "lat": -33.9266962838379,
    "long": 150.82348555635033
  },
  {
    "CED_CODE18": "147",
    "CED_NAME18": "Whitlam",
    "CED_POPU17": 158340,
    "AREASQKM18": 972.9507,
    "lat": -34.555828878909,
    "long": 150.55799073074854
  },
  {
    "CED_CODE18": "201",
    "CED_NAME18": "Aston",
    "CED_POPU17": 161813,
    "AREASQKM18": 118.3019,
    "lat": -37.8894928812699,
    "long": 145.26110528656756
  },
  {
    "CED_CODE18": "202",
    "CED_NAME18": "Ballarat",
    "CED_POPU17": 154461,
    "AREASQKM18": 4305.2638,
    "lat": -37.503797163812195,
    "long": 144.0890066187296
  },
  {
    "CED_CODE18": "203",
    "CED_NAME18": "Bendigo",
    "CED_POPU17": 150775,
    "AREASQKM18": 5648.5996,
    "lat": -36.8843451830891,
    "long": 144.35384591595164
  },
  {
    "CED_CODE18": "204",
    "CED_NAME18": "Bruce",
    "CED_POPU17": 190121,
    "AREASQKM18": 91.6164,
    "lat": -37.976392168175245,
    "long": 145.23247920632934
  },
  {
    "CED_CODE18": "205",
    "CED_NAME18": "Calwell",
    "CED_POPU17": 178293,
    "AREASQKM18": 267.601,
    "lat": -37.6137201082396,
    "long": 144.89339898953966
  },
  {
    "CED_CODE18": "206",
    "CED_NAME18": "Casey",
    "CED_POPU17": 156659,
    "AREASQKM18": 2461.579,
    "lat": -37.71404891553051,
    "long": 145.69831417230105
  },
  {
    "CED_CODE18": "207",
    "CED_NAME18": "Chisholm",
    "CED_POPU17": 182123,
    "AREASQKM18": 65.8217,
    "lat": -37.8474356128598,
    "long": 145.14153451843785
  },
  {
    "CED_CODE18": "208",
    "CED_NAME18": "Cooper",
    "CED_POPU17": 171143,
    "AREASQKM18": 60.8967,
    "lat": -37.73675839462856,
    "long": 145.0138741439868
  },
  {
    "CED_CODE18": "209",
    "CED_NAME18": "Corangamite",
    "CED_POPU17": 143540,
    "AREASQKM18": 5288.9359,
    "lat": -38.331660008862606,
    "long": 143.91984471946128
  },
  {
    "CED_CODE18": "210",
    "CED_NAME18": "Corio",
    "CED_POPU17": 154460,
    "AREASQKM18": 770.5288,
    "lat": -37.984955557689176,
    "long": 144.36543891996968
  },
  {
    "CED_CODE18": "211",
    "CED_NAME18": "Deakin",
    "CED_POPU17": 162276,
    "AREASQKM18": 79.6714,
    "lat": -37.813395296190706,
    "long": 145.24613216181692
  },
  {
    "CED_CODE18": "212",
    "CED_NAME18": "Dunkley",
    "CED_POPU17": 159581,
    "AREASQKM18": 152.8057,
    "lat": -38.142982513929155,
    "long": 145.16225443902596
  },
  {
    "CED_CODE18": "213",
    "CED_NAME18": "Flinders",
    "CED_POPU17": 145119,
    "AREASQKM18": 871.1893,
    "lat": -38.345574122038634,
    "long": 145.03413303722846
  },
  {
    "CED_CODE18": "214",
    "CED_NAME18": "Fraser",
    "CED_POPU17": 178821,
    "AREASQKM18": 100.8444,
    "lat": -37.74631032270834,
    "long": 144.80789709736615
  },
  {
    "CED_CODE18": "215",
    "CED_NAME18": "Gellibrand",
    "CED_POPU17": 180010,
    "AREASQKM18": 124.8871,
    "lat": -37.858857639345494,
    "long": 144.810153380317
  },
  {
    "CED_CODE18": "216",
    "CED_NAME18": "Gippsland",
    "CED_POPU17": 147888,
    "AREASQKM18": 33061.4229,
    "lat": -37.57976096187138,
    "long": 147.7715273149166
  },
  {
    "CED_CODE18": "217",
    "CED_NAME18": "Goldstein",
    "CED_POPU17": 158481,
    "AREASQKM18": 50.6625,
    "lat": -37.93164255027754,
    "long": 145.0214241864352
  },
  {
    "CED_CODE18": "218",
    "CED_NAME18": "Gorton",
    "CED_POPU17": 183866,
    "AREASQKM18": 545.6699,
    "lat": -37.695583024047686,
    "long": 144.6308538435994
  },
  {
    "CED_CODE18": "219",
    "CED_NAME18": "Higgins",
    "CED_POPU17": 172005,
    "AREASQKM18": 41.9125,
    "lat": -37.86556844219775,
    "long": 145.04992184875942
  },
  {
    "CED_CODE18": "220",
    "CED_NAME18": "Holt",
    "CED_POPU17": 184226,
    "AREASQKM18": 267.1485,
    "lat": -38.14784618104815,
    "long": 145.30299035587063
  },
  {
    "CED_CODE18": "221",
    "CED_NAME18": "Hotham",
    "CED_POPU17": 188320,
    "AREASQKM18": 82.5542,
    "lat": -37.92013189043883,
    "long": 145.13151510211404
  },
  {
    "CED_CODE18": "222",
    "CED_NAME18": "Indi",
    "CED_POPU17": 148105,
    "AREASQKM18": 29292.381,
    "lat": -36.73461675678435,
    "long": 146.60280491411962
  },
  {
    "CED_CODE18": "223",
    "CED_NAME18": "Isaacs",
    "CED_POPU17": 160723,
    "AREASQKM18": 156.205,
    "lat": -38.01543171309158,
    "long": 145.1496435962778
  },
  {
    "CED_CODE18": "224",
    "CED_NAME18": "Jagajaga",
    "CED_POPU17": 153923,
    "AREASQKM18": 104.3754,
    "lat": -37.706191344168076,
    "long": 145.10948675932738
  },
  {
    "CED_CODE18": "225",
    "CED_NAME18": "Kooyong",
    "CED_POPU17": 166419,
    "AREASQKM18": 55.8515,
    "lat": -37.81290169029122,
    "long": 145.06538456304247
  },
  {
    "CED_CODE18": "226",
    "CED_NAME18": "La Trobe",
    "CED_POPU17": 162012,
    "AREASQKM18": 719.1042,
    "lat": -38.008387932288336,
    "long": 145.51337107349295
  },
  {
    "CED_CODE18": "227",
    "CED_NAME18": "Lalor",
    "CED_POPU17": 193726,
    "AREASQKM18": 493.54,
    "lat": -37.88781600306484,
    "long": 144.6032167372004
  },
  {
    "CED_CODE18": "228",
    "CED_NAME18": "Macnamara",
    "CED_POPU17": 185183,
    "AREASQKM18": 41.0226,
    "lat": -37.85254935829366,
    "long": 144.97504293704918
  },
  {
    "CED_CODE18": "229",
    "CED_NAME18": "Mallee",
    "CED_POPU17": 155839,
    "AREASQKM18": 81680.284,
    "lat": -35.841467462762694,
    "long": 142.3728634552694
  },
  {
    "CED_CODE18": "230",
    "CED_NAME18": "Maribyrnong",
    "CED_POPU17": 170360,
    "AREASQKM18": 63.1908,
    "lat": -37.75616868968707,
    "long": 144.89036835853494
  },
  {
    "CED_CODE18": "231",
    "CED_NAME18": "McEwen",
    "CED_POPU17": 153859,
    "AREASQKM18": 2689.7842,
    "lat": -37.43183174802859,
    "long": 144.91498000085917
  },
  {
    "CED_CODE18": "232",
    "CED_NAME18": "Melbourne",
    "CED_POPU17": 215951,
    "AREASQKM18": 40.6603,
    "lat": -37.80446937734599,
    "long": 144.96354963604705
  },
  {
    "CED_CODE18": "233",
    "CED_NAME18": "Menzies",
    "CED_POPU17": 158381,
    "AREASQKM18": 186.2437,
    "lat": -37.73935671168784,
    "long": 145.1957090876626
  },
  {
    "CED_CODE18": "234",
    "CED_NAME18": "Monash",
    "CED_POPU17": 146190,
    "AREASQKM18": 8980.4807,
    "lat": -38.283833333136364,
    "long": 146.02780682580575
  },
  {
    "CED_CODE18": "235",
    "CED_NAME18": "Nicholls",
    "CED_POPU17": 153776,
    "AREASQKM18": 14818.1398,
    "lat": -36.427162261266766,
    "long": 145.1544203909798
  },
  {
    "CED_CODE18": "236",
    "CED_NAME18": "Scullin",
    "CED_POPU17": 170817,
    "AREASQKM18": 156.9768,
    "lat": -37.630079347673274,
    "long": 145.02598659204077
  },
  {
    "CED_CODE18": "237",
    "CED_NAME18": "Wannon",
    "CED_POPU17": 153570,
    "AREASQKM18": 33512.4127,
    "lat": -37.79765174508503,
    "long": 142.49105528722626
  },
  {
    "CED_CODE18": "238",
    "CED_NAME18": "Wills",
    "CED_POPU17": 168833,
    "AREASQKM18": 47.0645,
    "lat": -37.73047354966402,
    "long": 144.9479886401896
  },
  {
    "CED_CODE18": "301",
    "CED_NAME18": "Blair",
    "CED_POPU17": 171503,
    "AREASQKM18": 6465.2589,
    "lat": -27.11931373148349,
    "long": 152.4658568692257
  },
  {
    "CED_CODE18": "302",
    "CED_NAME18": "Bonner",
    "CED_POPU17": 158647,
    "AREASQKM18": 375.2379,
    "lat": -27.50183068771211,
    "long": 153.14081397173106
  },
  {
    "CED_CODE18": "303",
    "CED_NAME18": "Bowman",
    "CED_POPU17": 154617,
    "AREASQKM18": 537.167,
    "lat": -27.54729727111211,
    "long": 153.453857429914
  },
  {
    "CED_CODE18": "304",
    "CED_NAME18": "Brisbane",
    "CED_POPU17": 174646,
    "AREASQKM18": 56.7119,
    "lat": -27.437661588077745,
    "long": 153.03241390028143
  },
  {
    "CED_CODE18": "305",
    "CED_NAME18": "Capricornia",
    "CED_POPU17": 154875,
    "AREASQKM18": 94234.9951,
    "lat": -21.986603827923293,
    "long": 148.16703421315947
  },
  {
    "CED_CODE18": "306",
    "CED_NAME18": "Dawson",
    "CED_POPU17": 157233,
    "AREASQKM18": 11443.8647,
    "lat": -20.167207320026264,
    "long": 148.02784491312943
  },
  {
    "CED_CODE18": "307",
    "CED_NAME18": "Dickson",
    "CED_POPU17": 159328,
    "AREASQKM18": 724.5753,
    "lat": -27.27267631817287,
    "long": 152.84913525920157
  },
  {
    "CED_CODE18": "308",
    "CED_NAME18": "Fadden",
    "CED_POPU17": 175618,
    "AREASQKM18": 388.4409,
    "lat": -27.814859771228825,
    "long": 153.33582108289735
  },
  {
    "CED_CODE18": "309",
    "CED_NAME18": "Fairfax",
    "CED_POPU17": 156273,
    "AREASQKM18": 1021.1648,
    "lat": -26.58464178649158,
    "long": 152.88442186341436
  },
  {
    "CED_CODE18": "310",
    "CED_NAME18": "Fisher",
    "CED_POPU17": 154117,
    "AREASQKM18": 1182.8828,
    "lat": -26.787748322693893,
    "long": 152.9020879925307
  },
  {
    "CED_CODE18": "311",
    "CED_NAME18": "Flynn",
    "CED_POPU17": 158366,
    "AREASQKM18": 132931.674,
    "lat": -24.496078785870086,
    "long": 149.65763069931634
  },
  {
    "CED_CODE18": "312",
    "CED_NAME18": "Forde",
    "CED_POPU17": 175932,
    "AREASQKM18": 426.5838,
    "lat": -27.76450121412669,
    "long": 153.1818543464655
  },
  {
    "CED_CODE18": "313",
    "CED_NAME18": "Griffith",
    "CED_POPU17": 162832,
    "AREASQKM18": 52.7102,
    "lat": -27.487976748296017,
    "long": 153.06508014041054
  },
  {
    "CED_CODE18": "314",
    "CED_NAME18": "Groom",
    "CED_POPU17": 153895,
    "AREASQKM18": 5665.755,
    "lat": -27.46442367719244,
    "long": 151.65463720063596
  },
  {
    "CED_CODE18": "315",
    "CED_NAME18": "Herbert",
    "CED_POPU17": 165377,
    "AREASQKM18": 1128.1617,
    "lat": -19.242042365720973,
    "long": 146.5951069665349
  },
  {
    "CED_CODE18": "316",
    "CED_NAME18": "Hinkler",
    "CED_POPU17": 146631,
    "AREASQKM18": 3811.1787,
    "lat": -25.202146651704073,
    "long": 152.41338945137775
  },
  {
    "CED_CODE18": "317",
    "CED_NAME18": "Kennedy",
    "CED_POPU17": 168690,
    "AREASQKM18": 582437.3349,
    "lat": -19.545450741456744,
    "long": 142.11150283408375
  },
  {
    "CED_CODE18": "318",
    "CED_NAME18": "Leichhardt",
    "CED_POPU17": 175479,
    "AREASQKM18": 133069.167,
    "lat": -14.195228217630284,
    "long": 143.13866798222082
  },
  {
    "CED_CODE18": "319",
    "CED_NAME18": "Lilley",
    "CED_POPU17": 158758,
    "AREASQKM18": 139.107,
    "lat": -27.37538048531721,
    "long": 153.07301701703656
  },
  {
    "CED_CODE18": "320",
    "CED_NAME18": "Longman",
    "CED_POPU17": 169165,
    "AREASQKM18": 1244.9912,
    "lat": -27.01670692551681,
    "long": 152.86471738045213
  },
  {
    "CED_CODE18": "321",
    "CED_NAME18": "Maranoa",
    "CED_POPU17": 151532,
    "AREASQKM18": 729809.7766,
    "lat": -25.80654692783075,
    "long": 144.71547072571096
  },
  {
    "CED_CODE18": "322",
    "CED_NAME18": "McPherson",
    "CED_POPU17": 159569,
    "AREASQKM18": 230.9998,
    "lat": -28.147377670562154,
    "long": 153.39883136588253
  },
  {
    "CED_CODE18": "323",
    "CED_NAME18": "Moncrieff",
    "CED_POPU17": 177222,
    "AREASQKM18": 99.5668,
    "lat": -28.006223842360274,
    "long": 153.384065492078
  },
  {
    "CED_CODE18": "324",
    "CED_NAME18": "Moreton",
    "CED_POPU17": 172632,
    "AREASQKM18": 108.6799,
    "lat": -27.563920526870024,
    "long": 153.03299313667694
  },
  {
    "CED_CODE18": "325",
    "CED_NAME18": "Oxley",
    "CED_POPU17": 178110,
    "AREASQKM18": 156.7174,
    "lat": -27.609890250739415,
    "long": 152.933196218544
  },
  {
    "CED_CODE18": "326",
    "CED_NAME18": "Petrie",
    "CED_POPU17": 173680,
    "AREASQKM18": 149.9372,
    "lat": -27.24530621442828,
    "long": 153.03942044638723
  },
  {
    "CED_CODE18": "327",
    "CED_NAME18": "Rankin",
    "CED_POPU17": 188419,
    "AREASQKM18": 130.9693,
    "lat": -27.642367039023256,
    "long": 153.09379922479772
  },
  {
    "CED_CODE18": "328",
    "CED_NAME18": "Ryan",
    "CED_POPU17": 163182,
    "AREASQKM18": 367.6047,
    "lat": -27.458398307560557,
    "long": 152.86192262453068
  },
  {
    "CED_CODE18": "329",
    "CED_NAME18": "Wide Bay",
    "CED_POPU17": 147406,
    "AREASQKM18": 14206.0862,
    "lat": -26.013491552910963,
    "long": 152.47822892605365
  },
  {
    "CED_CODE18": "330",
    "CED_NAME18": "Wright",
    "CED_POPU17": 165418,
    "AREASQKM18": 7574.7826,
    "lat": -27.916638930988466,
    "long": 152.67309870737532
  },
  {
    "CED_CODE18": "401",
    "CED_NAME18": "Adelaide",
    "CED_POPU17": 188410,
    "AREASQKM18": 86.3492,
    "lat": -34.902515031693774,
    "long": 138.58881326982095
  },
  {
    "CED_CODE18": "402",
    "CED_NAME18": "Barker",
    "CED_POPU17": 171058,
    "AREASQKM18": 59870.3326,
    "lat": -35.66865753045135,
    "long": 140.14167318104973
  },
  {
    "CED_CODE18": "403",
    "CED_NAME18": "Boothby",
    "CED_POPU17": 170797,
    "AREASQKM18": 116.3405,
    "lat": -35.00239294117763,
    "long": 138.5835949177472
  },
  {
    "CED_CODE18": "404",
    "CED_NAME18": "Grey",
    "CED_POPU17": 173424,
    "AREASQKM18": 913986.2308,
    "lat": -29.653367958907264,
    "long": 135.50309426979487
  },
  {
    "CED_CODE18": "405",
    "CED_NAME18": "Hindmarsh",
    "CED_POPU17": 165766,
    "AREASQKM18": 122.4318,
    "lat": -34.87398200270461,
    "long": 138.51839877649545
  },
  {
    "CED_CODE18": "406",
    "CED_NAME18": "Kingston",
    "CED_POPU17": 162107,
    "AREASQKM18": 167.5688,
    "lat": -35.11789897758256,
    "long": 138.53574361633787
  },
  {
    "CED_CODE18": "407",
    "CED_NAME18": "Makin",
    "CED_POPU17": 170829,
    "AREASQKM18": 145.397,
    "lat": -34.80186561740986,
    "long": 138.6778550653152
  },
  {
    "CED_CODE18": "408",
    "CED_NAME18": "Mayo",
    "CED_POPU17": 163904,
    "AREASQKM18": 9132.2003,
    "lat": -35.268839787942774,
    "long": 138.73369352294625
  },
  {
    "CED_CODE18": "409",
    "CED_NAME18": "Spence",
    "CED_POPU17": 177487,
    "AREASQKM18": 550.4437,
    "lat": -34.6859166309128,
    "long": 138.66803447703546
  },
  {
    "CED_CODE18": "410",
    "CED_NAME18": "Sturt",
    "CED_POPU17": 179889,
    "AREASQKM18": 97.6133,
    "lat": -34.89676514303109,
    "long": 138.66782377430144
  },
  {
    "CED_CODE18": "501",
    "CED_NAME18": "Brand",
    "CED_POPU17": 172893,
    "AREASQKM18": 377.7019,
    "lat": -32.31083001738397,
    "long": 115.80550498849671
  },
  {
    "CED_CODE18": "502",
    "CED_NAME18": "Burt",
    "CED_POPU17": 177620,
    "AREASQKM18": 173.8312,
    "lat": -32.1171278640639,
    "long": 115.96203055414345
  },
  {
    "CED_CODE18": "503",
    "CED_NAME18": "Canning",
    "CED_POPU17": 153064,
    "AREASQKM18": 6172.0892,
    "lat": -32.62260828156089,
    "long": 116.12309779851105
  },
  {
    "CED_CODE18": "504",
    "CED_NAME18": "Cowan",
    "CED_POPU17": 153170,
    "AREASQKM18": 178.8653,
    "lat": -31.801913056051685,
    "long": 115.8699242117174
  },
  {
    "CED_CODE18": "505",
    "CED_NAME18": "Curtin",
    "CED_POPU17": 151384,
    "AREASQKM18": 86.7006,
    "lat": -31.94800930994875,
    "long": 115.78824973265303
  },
  {
    "CED_CODE18": "506",
    "CED_NAME18": "Durack",
    "CED_POPU17": 186187,
    "AREASQKM18": 1626549.828,
    "lat": -23.01534727903521,
    "long": 121.36619346294555
  },
  {
    "CED_CODE18": "507",
    "CED_NAME18": "Forrest",
    "CED_POPU17": 152460,
    "AREASQKM18": 11066.9407,
    "lat": -33.7638655184924,
    "long": 115.62791258407697
  },
  {
    "CED_CODE18": "508",
    "CED_NAME18": "Fremantle",
    "CED_POPU17": 156992,
    "AREASQKM18": 194.2373,
    "lat": -32.11874856154195,
    "long": 115.82228353147623
  },
  {
    "CED_CODE18": "509",
    "CED_NAME18": "Hasluck",
    "CED_POPU17": 148225,
    "AREASQKM18": 1201.4022,
    "lat": -31.874995846730858,
    "long": 116.19574069247473
  },
  {
    "CED_CODE18": "510",
    "CED_NAME18": "Moore",
    "CED_POPU17": 145796,
    "AREASQKM18": 89.8495,
    "lat": -31.778347838161615,
    "long": 115.76268547434941
  },
  {
    "CED_CODE18": "511",
    "CED_NAME18": "O'Connor",
    "CED_POPU17": 158996,
    "AREASQKM18": 866981.3533,
    "lat": -29.55326533739752,
    "long": 123.8789543549031
  },
  {
    "CED_CODE18": "512",
    "CED_NAME18": "Pearce",
    "CED_POPU17": 194221,
    "AREASQKM18": 13227.6436,
    "lat": -31.63377665031384,
    "long": 116.30451872515205
  },
  {
    "CED_CODE18": "513",
    "CED_NAME18": "Perth",
    "CED_POPU17": 158995,
    "AREASQKM18": 75.4167,
    "lat": -31.917238093781197,
    "long": 115.8935827213052
  },
  {
    "CED_CODE18": "514",
    "CED_NAME18": "Stirling",
    "CED_POPU17": 154409,
    "AREASQKM18": 74.1177,
    "lat": -31.87573402686257,
    "long": 115.82473156571055
  },
  {
    "CED_CODE18": "515",
    "CED_NAME18": "Swan",
    "CED_POPU17": 170358,
    "AREASQKM18": 123.707,
    "lat": -31.974422476652755,
    "long": 115.93579492460871
  },
  {
    "CED_CODE18": "516",
    "CED_NAME18": "Tangney",
    "CED_POPU17": 140682,
    "AREASQKM18": 72.5547,
    "lat": -32.04504235926457,
    "long": 115.85541759199911
  },
  {
    "CED_CODE18": "601",
    "CED_NAME18": "Bass",
    "CED_POPU17": 104784,
    "AREASQKM18": 8070.5666,
    "lat": -41.16775260514246,
    "long": 147.44756081238026
  },
  {
    "CED_CODE18": "602",
    "CED_NAME18": "Braddon",
    "CED_POPU17": 104992,
    "AREASQKM18": 21368.6519,
    "lat": -41.746864298789475,
    "long": 145.52631822020652
  },
  {
    "CED_CODE18": "603",
    "CED_NAME18": "Clark",
    "CED_POPU17": 106121,
    "AREASQKM18": 295.3677,
    "lat": -42.890552299015106,
    "long": 147.24462662424736
  },
  {
    "CED_CODE18": "604",
    "CED_NAME18": "Franklin",
    "CED_POPU17": 102079,
    "AREASQKM18": 2641.4898,
    "lat": -43.15021767997466,
    "long": 146.98406144392027
  },
  {
    "CED_CODE18": "605",
    "CED_NAME18": "Lyons",
    "CED_POPU17": 104176,
    "AREASQKM18": 35641.7847,
    "lat": -42.224191271011605,
    "long": 146.99592747673785
  },
  {
    "CED_CODE18": "701",
    "CED_NAME18": "Lingiari",
    "CED_POPU17": 132479,
    "AREASQKM18": 1348047.3716,
    "lat": -19.479672392887657,
    "long": 133.36966069648577
  },
  {
    "CED_CODE18": "702",
    "CED_NAME18": "Solomon",
    "CED_POPU17": 117481,
    "AREASQKM18": 196.8084,
    "lat": -12.43466942887771,
    "long": 130.9123768995654
  },
  {
    "CED_CODE18": "801",
    "CED_NAME18": "Bean",
    "CED_POPU17": 138303,
    "AREASQKM18": 1915.0083,
    "lat": -35.54810074973382,
    "long": 148.96308730456525
  },
  {
    "CED_CODE18": "802",
    "CED_NAME18": "Canberra",
    "CED_POPU17": 133077,
    "AREASQKM18": 303.553,
    "lat": -35.28842881078532,
    "long": 149.19543692772598
  },
  {
    "CED_CODE18": "803",
    "CED_NAME18": "Fenner",
    "CED_POPU17": 142439,
    "AREASQKM18": 246.075,
    "lat": -35.200303482867824,
    "long": 149.08279108702934
  }
]